$GPGGA,092700.000,5321.6802,N,00630.3372,W,1,8,1.03,61.7,M,55.2,M,,*71
$GPVTG,054.1,T,034.4,M,005.5,N,010.2,K*41
$GPGGA,092710.000,5322.6802,N,00630.3372,W,1,8,1.03,61.7,M,55.2,M,,*71
$GPVTG,054.2,T,034.4,M,005.5,N,010.2,K*42
$GPGGA,092720.000,5323.6802,N,00630.3372,W,1,8,1.03,61.7,M,55.2,M,,*71
$GPVTG,054.3,T,034.4,M,005.5,N,010.2,K*43
$GPGGA,092730.000,5324.6802,N,00630.3372,W,1,8,1.03,61.7,M,55.2,M,,*71
$GPVTG,054.4,T,034.4,M,005.5,N,010.2,K*44
$GPGGA,092740.000,5325.6802,N,00630.3372,W,1,8,1.03,61.7,M,55.2,M,,*71
$GPVTG,054.5,T,034.4,M,005.5,N,010.2,K*45
$GPGSA,A,3,10,07,05,02,29,04,08,13,,,,,1.72,1.03,1.38*0A
$GPGSV,3,1,11,10,63,137,17,07,61,098,15,05,59,290,20,08,54,157,30*70
$GPGSV,3,2,11,02,39,223,19,13,28,070,17,26,23,252,,04,14,186,14*79
$GPGSV,3,3,11,29,09,301,24,16,09,020,,36,,,*76
$GPRMC,092750.000,A,5321.6802,N,00630.3372,W,0.02,31.66,280511,,,A*43
$GPGGA,092751.000,5321.6802,N,00630.3371,W,1,8,1.03,61.7,M,55.3,M,,*75
$GPGSA,A,3,10,07,05,02,29,04,08,13,,,,,1.72,1.03,1.38*0A
$GPGSV,3,1,11,10,63,137,17,07,61,098,15,05,59,290,20,08,54,157,30*70
$GPGSV,3,2,11,02,39,223,16,13,28,070,17,26,23,252,,04,14,186,15*77
$GPGSV,3,3,11,29,09,301,24,16,09,020,,36,,,*76
$GPRMC,092751.000,A,5321.6802,N,00630.3371,W,0.06,31.66,280511,,,A*45
$GPVTG,054.2,T,034.4,M,005.5,N,010.2,K*42
$GPGGA,092700.000,5321.6802,N,00630.3372,W,1,8,1.03,61.7,M,55.2,M,,*71
$GPVTG,054.1,T,034.4,M,005.5,N,010.2,K*41
$GPGGA,092710.000,5322.6802,N,00630.3372,W,1,8,1.03,61.7,M,55.2,M,,*71
$GPVTG,054.2,T,034.4,M,005.5,N,010.2,K*42
$GPGGA,092720.000,5323.6802,N,00630.3372,W,1,8,1.03,61.7,M,55.2,M,,*71
$GPVTG,054.3,T,034.4,M,005.5,N,010.2,K*43
$GPGGA,092730.000,5324.6802,N,00630.3372,W,1,8,1.03,61.7,M,55.2,M,,*71
$GPVTG,054.4,T,034.4,M,005.5,N,010.2,K*44
$GPGGA,092740.000,5325.6802,N,00630.3372,W,1,8,1.03,61.7,M,55.2,M,,*71
$GPVTG,054.5,T,034.4,M,005.5,N,010.2,K*45$GPGGA,092700.000,5321.6802,N,00630.3372,W,1,8,1.03,61.7,M,55.2,M,,*71
$GPVTG,054.1,T,034.4,M,005.5,N,010.2,K*41
$GPGGA,092710.000,5322.6802,N,00630.3372,W,1,8,1.03,61.7,M,55.2,M,,*71
$GPVTG,054.2,T,034.4,M,005.5,N,010.2,K*42
$GPGGA,092720.000,5323.6802,N,00630.3372,W,1,8,1.03,61.7,M,55.2,M,,*71
$GPVTG,054.3,T,034.4,M,005.5,N,010.2,K*43
$GPGGA,092730.000,5324.6802,N,00630.3372,W,1,8,1.03,61.7,M,55.2,M,,*71
$GPVTG,054.4,T,034.4,M,005.5,N,010.2,K*44
$GPGGA,092740.000,5325.6802,N,00630.3372,W,1,8,1.03,61.7,M,55.2,M,,*71
$GPVTG,054.5,T,034.4,M,005.5,N,010.2,K*45$GPGGA,092700.000,5321.6802,N,00630.3372,W,1,8,1.03,61.7,M,55.2,M,,*71
$GPVTG,054.1,T,034.4,M,005.5,N,010.2,K*41
$GPGGA,092710.000,5322.6802,N,00630.3372,W,1,8,1.03,61.7,M,55.2,M,,*71
$GPVTG,054.2,T,034.4,M,005.5,N,010.2,K*42
$GPGGA,092720.000,5323.6802,N,00630.3372,W,1,8,1.03,61.7,M,55.2,M,,*71
$GPVTG,054.3,T,034.4,M,005.5,N,010.2,K*43
$GPGGA,092730.000,5324.6802,N,00630.3372,W,1,8,1.03,61.7,M,55.2,M,,*71
$GPVTG,054.4,T,034.4,M,005.5,N,010.2,K*44
$GPGGA,092740.000,5325.6802,N,00630.3372,W,1,8,1.03,61.7,M,55.2,M,,*71
$GPVTG,054.5,T,034.4,M,005.5,N,010.2,K*45$GPGGA,092700.000,5321.6802,N,00630.3372,W,1,8,1.03,61.7,M,55.2,M,,*71
$GPVTG,054.1,T,034.4,M,005.5,N,010.2,K*41
$GPGGA,092710.000,5322.6802,N,00630.3372,W,1,8,1.03,61.7,M,55.2,M,,*71
$GPVTG,054.2,T,034.4,M,005.5,N,010.2,K*42
$GPGGA,092720.000,5323.6802,N,00630.3372,W,1,8,1.03,61.7,M,55.2,M,,*71
$GPVTG,054.3,T,034.4,M,005.5,N,010.2,K*43
$GPGGA,092730.000,5324.6802,N,00630.3372,W,1,8,1.03,61.7,M,55.2,M,,*71
$GPVTG,054.4,T,034.4,M,005.5,N,010.2,K*44
$GPGGA,092740.000,5325.6802,N,00630.3372,W,1,8,1.03,61.7,M,55.2,M,,*71
$GPVTG,054.5,T,034.4,M,005.5,N,010.2,K*45$GPGGA,092700.000,5321.6802,N,00630.3372,W,1,8,1.03,61.7,M,55.2,M,,*71
$GPVTG,054.1,T,034.4,M,005.5,N,010.2,K*41
$GPGGA,092710.000,5322.6802,N,00630.3372,W,1,8,1.03,61.7,M,55.2,M,,*71
$GPVTG,054.2,T,034.4,M,005.5,N,010.2,K*42
$GPGGA,092720.000,5323.6802,N,00630.3372,W,1,8,1.03,61.7,M,55.2,M,,*71
$GPVTG,054.3,T,034.4,M,005.5,N,010.2,K*43
$GPGGA,092730.000,5324.6802,N,00630.3372,W,1,8,1.03,61.7,M,55.2,M,,*71
$GPVTG,054.4,T,034.4,M,005.5,N,010.2,K*44
$GPGGA,092740.000,5325.6802,N,00630.3372,W,1,8,1.03,61.7,M,55.2,M,,*71
$GPVTG,054.5,T,034.4,M,005.5,N,010.2,K*45$GPGGA,092700.000,5321.6802,N,00630.3372,W,1,8,1.03,61.7,M,55.2,M,,*71
$GPVTG,054.1,T,034.4,M,005.5,N,010.2,K*41
$GPGGA,092710.000,5322.6802,N,00630.3372,W,1,8,1.03,61.7,M,55.2,M,,*71
$GPVTG,054.2,T,034.4,M,005.5,N,010.2,K*42
$GPGGA,092720.000,5323.6802,N,00630.3372,W,1,8,1.03,61.7,M,55.2,M,,*71
$GPVTG,054.3,T,034.4,M,005.5,N,010.2,K*43
$GPGGA,092730.000,5324.6802,N,00630.3372,W,1,8,1.03,61.7,M,55.2,M,,*71
$GPVTG,054.4,T,034.4,M,005.5,N,010.2,K*44
$GPGGA,092740.000,5325.6802,N,00630.3372,W,1,8,1.03,61.7,M,55.2,M,,*71
$GPVTG,054.5,T,034.4,M,005.5,N,010.2,K*45$GPGGA,092700.000,5321.6802,N,00630.3372,W,1,8,1.03,61.7,M,55.2,M,,*71
$GPVTG,054.1,T,034.4,M,005.5,N,010.2,K*41
$GPGGA,092710.000,5322.6802,N,00630.3372,W,1,8,1.03,61.7,M,55.2,M,,*71
$GPVTG,054.2,T,034.4,M,005.5,N,010.2,K*42
$GPGGA,092720.000,5323.6802,N,00630.3372,W,1,8,1.03,61.7,M,55.2,M,,*71
$GPVTG,054.3,T,034.4,M,005.5,N,010.2,K*43
$GPGGA,092730.000,5324.6802,N,00630.3372,W,1,8,1.03,61.7,M,55.2,M,,*71
$GPVTG,054.4,T,034.4,M,005.5,N,010.2,K*44
$GPGGA,092740.000,5325.6802,N,00630.3372,W,1,8,1.03,61.7,M,55.2,M,,*71
$GPVTG,054.5,T,034.4,M,005.5,N,010.2,K*45$GPGGA,092700.000,5321.6802,N,00630.3372,W,1,8,1.03,61.7,M,55.2,M,,*71
$GPVTG,054.1,T,034.4,M,005.5,N,010.2,K*41
$GPGGA,092710.000,5322.6802,N,00630.3372,W,1,8,1.03,61.7,M,55.2,M,,*71
$GPVTG,054.2,T,034.4,M,005.5,N,010.2,K*42
$GPGGA,092720.000,5323.6802,N,00630.3372,W,1,8,1.03,61.7,M,55.2,M,,*71
$GPVTG,054.3,T,034.4,M,005.5,N,010.2,K*43
$GPGGA,092730.000,5324.6802,N,00630.3372,W,1,8,1.03,61.7,M,55.2,M,,*71
$GPVTG,054.4,T,034.4,M,005.5,N,010.2,K*44
$GPGGA,092740.000,5325.6802,N,00630.3372,W,1,8,1.03,61.7,M,55.2,M,,*71
$GPVTG,054.5,T,034.4,M,005.5,N,010.2,K*45$GPGGA,092700.000,5321.6802,N,00630.3372,W,1,8,1.03,61.7,M,55.2,M,,*71
$GPVTG,054.1,T,034.4,M,005.5,N,010.2,K*41
$GPGGA,092710.000,5322.6802,N,00630.3372,W,1,8,1.03,61.7,M,55.2,M,,*71
$GPVTG,054.2,T,034.4,M,005.5,N,010.2,K*42
$GPGGA,092720.000,5323.6802,N,00630.3372,W,1,8,1.03,61.7,M,55.2,M,,*71
$GPVTG,054.3,T,034.4,M,005.5,N,010.2,K*43
$GPGGA,092730.000,5324.6802,N,00630.3372,W,1,8,1.03,61.7,M,55.2,M,,*71
$GPVTG,054.4,T,034.4,M,005.5,N,010.2,K*44
$GPGGA,092740.000,5325.6802,N,00630.3372,W,1,8,1.03,61.7,M,55.2,M,,*71
$GPVTG,054.5,T,034.4,M,005.5,N,010.2,K*45